省级行政区,地级行政区,景点名称,评分,地址,评语,价格,销量,经度,纬度,交通
北京市,北京市,故宫博物院,1,北京市东城区景山前街4号,世界五大宫之首，穿越与您近在咫尺,60,"24,711",116.40,39.92,8.20
北京市,北京市,天坛公园,0.80,北京市东城区天坛内东里7号,探寻古代皇帝祭天仪式的奥秘,20,"4,296",116.42,39.89,6.70
北京市,北京市,颐和园,0.82,北京市海淀区新建宫门路19号,保存完整的一座皇家行宫御苑,39.80,"10,820",116.28,40.00,26.50
北京市,北京市,圆明园景区,0.76,北京市海淀区清华西路28号,追忆昔日万园之园,46,"6,967",116.30,40.03,22.60
北京市,北京市,八达岭-慕田峪长城,0.70,北京市怀柔区慕田峪村,电影《非诚勿扰》取景地,40,"4,742",115.98,40.37,80.20
北京市,北京市,明十三陵景区,0.72,北京市昌平区十三陵特区,气势磅礴的陵寝建筑群,43.70,"2,640",116.23,40.26,59.80
北京市,北京市,恭王府景区,0.74,北京市西城区什刹海前海西街17号,一起去看看和珅家,40,"5,182",116.39,39.94,10.10
北京市,北京市,奥林匹克公园,0.74,北京市朝阳区天辰东路11号,感受2008北京奥运的辉煌,30,96,116.40,40.01,21.30
天津市,天津市,天津古文化街旅游区（津门故里）,0.12,天津市南开区,在古代是祭祀海神和船工聚会娱乐之场所,2,34,117.20,39.15,4.60
天津市,天津市,天津盘山风景名胜区,0.80,天津市蓟县官庄镇北15公里处,早知有盘山，何必下江南,75,"1,598",122.00,41.25,121.50
河北省,秦皇岛市,山海关景区,0.72,河北省秦皇岛市山海关古城北3公里处,山体巨大嵯峨，恰似龙角，环境清幽,36,"3,189",119.77,40.02,17.50
河北省,保定市,安新白洋淀景区,0.98,河北省保定市安新县,小兵张嘎的家乡，荷花和芦苇丛中的北国江南,88,944,116.00,38.94,48.20
河北省,保定市,野三坡景区,1,河北省保定市涞水县三坡镇,北方的小桂林,65,"1,012",115.39,39.67,137.20
河北省,保定市,白石山景区,0.69,广西壮族自治区梧州市藤县象棋镇道家村,理想的观光、娱乐、休闲、疗养场所,105,58,114.71,39.22,122.70
河北省,保定市,清西陵景区,0.86,河北省保定市易县县城西15公里处的永宁山下,是一处典型的清代古建筑群,99,508,115.35,39.35,92.30
河北省,承德市,承德避暑山庄及周围寺庙景区,1,河北省承德市双桥区丽正门大街20号,古代帝王宫苑，清代皇帝避暑处理政务地,50,"2,303",118.18,40.77,2.50
河北省,承德市,金山岭长城景区,0.45,江苏省镇江市金山路62号,金山有“神话山”之称，名胜古迹众多,780,16,117.25,40.71,89.50
河北省,石家庄市,西柏坡景区,0.74,河北省石家庄市平山县西柏坡村,新中国从这里走来,0.90,6,113.95,38.35,87
河北省,唐山市,清东陵景区,1,河北省唐山市遵化市西北30公里处,众多清朝帝王和皇后的宏伟陵墓建筑群,133,884,117.69,40.18,88.10
河北省,邯郸市,娲皇宫景区,1,河北省邯郸市涉县索堡镇,"女娲氏""炼石补天，抟土造人""的地方",59.80,434,113.62,36.64,96
河北省,邯郸市,广府古城景区,0.86,河北省邯郸市永年县广府镇,太极拳之乡，北国小江南,70,166,114.74,36.71,30.10
山西省,大同市,云冈石窟,1,山西省大同市城西约16公里的武州山南麓,石头写成的千年史卷,120,"2,417",113.14,40.12,17.40
山西省,忻州市,五台山风景名胜区,1,山西省忻州市五台县台怀镇,兼有汉地和藏传佛教的佛教道场,50,"1,514",113.60,38.98,123.70
山西省,忻州市,雁门关景区,0.72,山西省忻州代县雁门关景区（二广高速新广武出口8公里）,与宁武关、偏关合称为“外三关”,45,"2,493",112.89,39.19,107
山西省,晋城市,皇城相府生态文化旅游区,1,山西省晋城市阳城县北留镇皇城村,大美皇城，传统中国年,115,"1,524",112.59,35.52,33.40
山西省,晋中市,介休绵山景区,0.76,山西省晋中市介休城东南20公里处新地村,佛教禅林——中国清明文化的发源地,110,778,112.00,36.90,151.30
山西省,晋中市,平遥古城景区,1,山西省晋中市平遥县,游览原汁原味古城，感受浓郁的晋商文化气息,238,"4,062",112.19,37.21,101.70
山西省,临汾市,洪洞大槐树寻根祭祖园景区,1,山西省临汾市洪洞县古槐北路公园街002号,问我祖先在何处，山西洪洞大槐树,70,"1,450",111.68,36.28,30.10
山西省,临汾市,云丘山景区,0,河北省迁安市大五里乡王家湾子村西,常年云雾飘渺，山峰时隐时现，犹如人间仙境,35,30,111.03,35.76,104.70
山西省,临汾市,黄河壶口瀑布旅游区,0.88,山西省临汾市吉县壶口镇黄河壶口瀑布国家地质公园内,一年四季，欣赏不同时期瀑布恢宏,85,"2,679",111.53,36.09,135.30
山西省,长治市,壶关太行山大峡谷八泉峡景区,1,山西省壶关县桥上乡,奇峰涧壑，林海悬崖，四时之景，巧夺天工,90,"2,400",113.58,35.92,77.60
内蒙古自治区,鄂尔多斯市,响沙湾旅游景区,0.84,内蒙古鄂尔多斯市达拉特旗响沙湾景区,跟随骆驼队，踏上一段神秘之旅,119.70,982,109.96,40.25,89.70
内蒙古自治区,鄂尔多斯市,成吉思汗陵旅游区,1,内蒙古省鄂尔多斯市伊金霍洛旗伊金霍洛镇,真实再现成吉思汗率军出征实景的大型军阵,0.80,46,109.82,39.37,24.30
内蒙古自治区,呼伦贝尔市,中俄边境旅游区,0.73,内蒙古省呼伦贝尔市满洲里市华埔大街23号,俄罗斯风情文化精粹,5,65,117.37,49.64,226.60
内蒙古自治区,兴安盟,阿尔山·柴河旅游景区,1,内蒙古兴安盟阿尔山市林海街,奇岩怪石姿态万千，堪称火山地质博物馆,225,"2,255",120.30,46.97,168.50
内蒙古自治区,赤峰市,哈斯哈图石阵旅游区,0.90,内蒙古赤峰市克什克腾旗北大山上,山峰相叠，景色迷人，“冰石林”惟妙惟肖,135,348,118.90,42.26,311.40
内蒙古自治区,阿拉善盟,胡杨林旅游区,0.86,和田地区民丰县,具有重要的生态和经济意义,0,0,101.09,41.97,11.50
辽宁省,沈阳市,沈阳市植物园,0.80,沈阳市东部风景秀丽的棋盘山旅游中心地带,充满异域风情的世博园,50,355,123.65,41.86,26.60
辽宁省,大连市,大连老虎滩海洋公园.老虎滩极地馆,0.90,辽宁省大连市中山区滨海中路9号,一揽湾区山海，遍赏极地海洋,50,"4,417",121.68,38.88,8.10
辽宁省,大连市,金石滩景区,0.92,辽宁省大连市金州区丹枫路金石滩国家旅游度假区,凝固的动物世界，天然的地质博物馆,70,954,122.02,39.10,59.60
辽宁省,本溪市,本溪水洞景区,1,辽宁省本溪市本溪满族自治县谢家崴子村,石奇，松秀，大气磅礴的“北国小黄山”,132,"4,592",124.07,41.31,36.60
辽宁省,鞍山市,千山景区,0.33,浙江省丽水市遂昌县石练镇黄皮村,江南小九寨,60,126,123.12,41.09,19.90
辽宁省,盘锦市,红海滩风景廊道景区,0.82,辽宁省盘锦市东郭苇场孙家流子分场南行6公里处,特色的生态元素和自然景观,499,61,121.85,40.91,46.80
吉林省,长春市,伪满皇宫博物院,0.92,吉林省长春市宽城区光复北路5号,伪满洲国傀儡皇帝爱新觉罗·溥仪的宫殿,67,944,125.36,43.91,2.40
吉林省,长春市,净月潭景区,1,吉林省长春市净月经济开发区净月大街5840号,禅，净，修，净月潭，北普陀寺,27,614,125.48,43.79,24.90
吉林省,长春市,长影世纪城旅游区,0.86,吉林省长春市净月开发区长双公路,北方冬天玩出狂拽酷炫,120,"5,824",125.30,43.87,25
吉林省,长春市,长春世界雕塑公园旅游景区,0.76,吉林省长春市南关区人民大街9518号,园内林园与碧水甚美，是难得的雕塑园,48,172,125.33,43.83,9.70
吉林省,白山市,长白山景区,0.86,吉林省延边州安图县二道白河镇,领略美人松的飘逸，地下长林的浩荡,103,"3,736",127.91,41.62,187.90
吉林省,延边朝鲜族自治州,六鼎山文化旅游区,0.45,吉林省延边州敦化市吉林敦化六鼎山文化旅游区,文化圣境 ，度假天堂,100,306,128.25,43.33,138.30
吉林省,通化市,高句丽文物古迹旅游景区,0.21,吉林省通化集安市集青公路与将军路交汇处,高句丽王陵墓葬，被列入世界文化遗产名录,99,56,126.17,41.17,103.10
黑龙江省,哈尔滨市,太阳岛景区,0.92,黑龙江省哈尔滨市松北区太阳岛风景区,位于城市中心的江漫滩湿地草原型风景名胜区,0.70,18,126.57,45.81,12.60
黑龙江省,黑河市,五大连池景区,1,黑龙江省黑河市五大连池风景区,天然的旅游资源，打开的火山教课书,1.40,8,126.17,48.70,243.30
黑龙江省,牡丹江市,镜泊湖景区,0.90,黑龙江省牡丹江市宁安市火山口旅游公路,湖光山色，原始森林，熔岩隧道的绝妙景观,50,"2,697",128.96,44.07,95.90
黑龙江省,伊春市,汤旺河林海奇石景区,0,黑龙江省伊春市汤旺河区境内,具有极高科研和科普价值的地质现象,75,78,129.46,48.47,121.60
黑龙江省,大兴安岭地区,北极村旅游区,1,黑龙江省大兴安岭地区漠河县西林吉镇十三区北极村,奇幻北极光，就可以在这里看到,68,2,122.37,53.49,535.10
黑龙江省,鸡西市,虎头旅游景区,0.90,位于风景区乌苏里江畔的虎头山顶,天下第一虎,45,198,133.67,45.99,241.10
上海市,上海市,上海东方明珠广播电视塔,0.76,上海市浦东新区世纪大道1号,感受云端漫步，品味老上海风情,88,"5,535",121.51,31.25,8
上海市,上海市,上海野生动物园,0.72,上海市浦东新区南六公路178号,与野生动物近距离的“亲密接触”,118,"7,312",121.73,31.06,45.10
上海市,上海市,上海科技馆,0.74,上海市浦东新区世纪大道2000号(近二号线上海科技馆站),技术改变生活，只有想不到没有做不到,51,"3,657",121.55,31.22,11.20
上海市,上海市,中国共产党一大·二大·四大纪念馆景区,1.00,上海市静安区老成都北路7弄30号,上海市级文物保护单位,0,"8,931",121.49,31.26,4.80
江苏省,南京市,钟山风景名胜区-中山陵园风景区,1,江苏省南京市玄武区石象路7号,建筑名家之杰作，有着极高的艺术价值,25.60,"2,783",118.86,32.07,9.60
江苏省,南京市,夫子庙—秦淮风光带景区,0.88,江苏省南京市秦淮区龙蟠中路夫子庙,一条长江路，半部民国史,25,"1,254",118.80,32.03,9.10
江苏省,无锡市,中央电视台无锡影视基地三国水浒景区,0.78,江苏省无锡市滨湖区山水东路25号,东方好莱坞，还可以偶遇明星哦,85,192,120.24,31.48,21.30
江苏省,无锡市,灵山大佛景区,0.70,北京市门头沟区清水镇西北,凉风习习，心惬意,80,28,120.10,31.44,41.80
江苏省,无锡市,鼋头渚景区,0.94,江苏省无锡市滨湖区鼋头渚1号,太湖佳绝处，毕竟在鼋头,85,"3,050",120.23,31.53,17.80
江苏省,无锡市,惠山古镇景区,0.11,江苏无锡北塘区听松坊53-1号,京杭大运河孕育的古镇,62,184,120.28,31.59,6.90
江苏省,苏州市,苏州园林（拙政园、虎丘山、留园）,0.78,江苏省苏州金阊区阊门外留园路338号,苏州园林中代表清朝艺术风格的私家园林,27.50,"2,541",120.64,31.33,49.80
江苏省,苏州市,周庄古镇景区,0.90,江苏省苏州市昆山周庄全福路43号,古香古色，品美食寻才子觅佳人,88,"1,852",120.86,31.12,98.90
江苏省,苏州市,吴江同里古镇风景区,0.80,江苏省苏州市吴江市同里镇,世界同里，东方小威尼斯,35,"2,919",120.73,31.16,72.90
江苏省,苏州市,金鸡湖景区,0.01,江苏省苏州市吴中区苏州工业园区,古城东部的这片湖水，是苏州的另一张脸,45,332,120.71,31.31,57.60
江苏省,苏州市,吴中太湖旅游区,0.92,苏州市吴中区孙武路2013号,环太湖大道，湖光山色，适合自驾、骑行，美不胜收,324,"1,781",120.45,31.22,61.10
江苏省,苏州市,沙家浜•虞山尚湖旅游区,0.72,江苏省苏州常熟尚湖风景区,临山孕湖，与古城浑然一体，含山川之秀,23,604,120.69,31.65,41.80
江苏省,扬州市,瘦西湖风景区,1,江苏省扬州市维扬区长春路118号,湖上园林的典型代表,95,"3,850",119.43,32.41,10.20
江苏省,镇江市,金山·焦山·北固山旅游景区,1,江苏省镇江市东吴路3号,游人寻访三国遗迹的向往之地,34.90,502,119.46,32.22,4.90
江苏省,镇江市,句容茅山景区,0.84,江苏省镇江市句容市茅山风景区,道家福地，“第八洞天”,78,"1,894",119.31,31.79,60.80
江苏省,常州市,环球恐龙城景区,0.74,常州市新北区环球恐龙城河海东路60号,以恐龙为主题的综合性游乐园,99,"5,669",120.01,31.83,6.50
江苏省,常州市,天目湖景区,0.20,重庆市丰都县仙女湖镇,南天湖景区位于重庆市丰都县境内，北距县城43公里，交通便捷。毗邻世界文化遗产武隆仙女山、涪陵大裂谷景区，与丰都名山景区、,55,148,119.45,31.32,107.80
江苏省,常州市,中国春秋淹城旅游区,0,江苏省常州市武进区武宜南路197号,五大功能区带您畅游春秋文化主题梦幻乐园,20,802,119.93,31.71,20.80
江苏省,南通市,濠河景区,1,江苏省南通市崇川区濠西路19号,形如葫芦，宛如珠链，南通城的“翡翠项链”,28,114,120.87,32.02,5.50
江苏省,泰州市,溱湖旅游景区,1,江苏省泰州市姜堰市溱潼镇,溱湖观赏湿地公园，品尝美味溱湖簖蟹,29.80,906,120.09,32.62,21.10
江苏省,淮安市,周恩来故里旅游景区,1,江苏省淮安市淮安区,优秀爱国主义教育基地,15,315,119.16,33.52,22.10
江苏省,盐城市,大丰中华麋鹿园景区,0.74,江苏省盐城市大丰市麋鹿保护区,看麋鹿不用去奈良，咱家门口也有,45,348,120.82,32.99,93.30
江苏省,徐州市,云龙湖景区,0.86,江苏省徐州市泉山区泉新路1号,临湖而立，三面青山，叠翠连绵，烟波浩渺,178,16,117.16,34.24,8.60
江苏省,连云港市,花果山景区,0.82,北京市房山区世界地质公园七渡花果山风景区,自然环境优美宜人，野生猕猴在此栖息,14,65,119.28,34.65,17.50
江苏省,宿迁市,洪泽湖湿地景区,0.43,江苏省宿迁市泗洪县城头乡泗洪洪泽湖湿地景区（票务中心）,淡水湿地景区,46,448,118.34,33.27,86.10
浙江省,杭州市,西湖风景名胜区,1,浙江省杭州市西湖区龙井路1号,在这里邂逅你的白娘子吧,7.50,"4,446",120.13,30.23,5.20
浙江省,杭州市,西溪湿地旅游区,0.49,浙江省杭州市余杭区五常街道五常大道龙舌嘴主出入口,生态湿地、城市水乡、洪昇故里,39.80,"1,058",120.16,30.28,15.60
浙江省,杭州市,千岛湖风景区,0.78,浙江省杭州市淳安县梦姑路,亲近大自然，放飞心情,40,"2,571",119.06,29.55,165.20
浙江省,温州市,雁荡山风景名胜区,1,浙江省温州乐清市雁荡镇雁山路88号,中国十大名山之一，风景秀美无双,15,786,121.04,28.38,81.50
浙江省,温州市,刘伯温故里景区,0.53,浙江省温州市文成县南田,一漈百丈高、二漈百丈深、三漈百丈宽,54.90,762,119.94,27.85,113.30
浙江省,舟山市,普陀山风景名胜区,1,浙江省舟山市普陀区,海天佛国 观音道场 ——普陀山,75,"2,231",122.40,30.01,113.50
浙江省,宁波市,溪口滕头旅游区,0.74,浙江省宁波奉化市武岭西路77号溪口风景区内,蒋经国留苏回奉，偕妻方良、子孝文居此,198.50,268,121.29,29.70,30.40
浙江省,宁波市,天一阁·月湖景区,0.72,浙江省宁波市海曙区天一街10号,书香圣地，读书人的书房,588,18,121.55,29.87,1.70
浙江省,嘉兴市,桐乡乌镇古镇旅游区,1,浙江省嘉兴市桐乡市乌镇石佛南路18号,鱼米之乡，丝绸之府,110,"2,006",120.50,30.75,32.90
浙江省,嘉兴市,南湖旅游区,0.76,湖南省岳阳市南津古渡(氮肥厂对面),省级自然风景保护区和旅游度假区,100,71,120.77,30.76,2.90
浙江省,嘉兴市,西塘古镇旅游景区,0.84,浙江省嘉兴市嘉善县西塘镇,水墨西塘让你感受古镇千年的诗情画意,85,990,120.90,30.95,29.30
浙江省,金华市,横店影视城景区,1,浙江省金华东阳市横店镇横店影视城,被誉为“中国好莱坞”,110,"13,312",120.32,29.14,91
浙江省,绍兴市,鲁迅故里•沈园景区,1,浙江省绍兴市绍兴县越城区鲁迅中路241号,一代文豪诞生地，现今的文化历史街区,104,538,120.60,30.00,3.60
浙江省,衢州市,开化根宫佛国文化旅游景区,0.56,浙江衢州市开化县城关根博路1号,展示根艺的独特魅力，根艺美术的四库全书,0.50,54,118.40,29.14,67.20
浙江省,衢州市,江郎山·廿八都景区,0.88,浙江省衢州市江山市石门镇江郎乡,雄奇冠天下，秀丽甲东南,78,624,118.49,28.30,65.10
浙江省,湖州市,南浔古镇景区,0.40,浙江省湖州市南浔区南浔镇人瑞路51号,水乡古镇九十九，不如南浔走一走,80,"2,283",120.44,30.87,52.90
浙江省,台州市,天台山景区,0.86,浙江省台州市天台县,霞客三上天台上，李白为之挥笔墨,15,138,121.04,29.16,89.80
浙江省,台州市,神仙居景区,0.76,浙江省台州市仙居县白塔镇,融险峰、幽谷、秀林、奇瀑于一体,100,952,120.61,28.69,100.70
浙江省,台州市,台州府城文化旅游区,0.74,浙江省台州市临海市北山路江南长城景区,感受“江南”水乡，远眺古北口长城,55,464,121.12,28.85,43.30
浙江省,丽水市,缙云仙都景区,1,浙江省丽水市缙云县城东7公里处,笑傲江湖拍摄地,94,"1,494",120.12,28.71,41.60
安徽省,黄山市,黄山风景区,1,安徽省黄山市黄山区黄山风景区,五岳归来不看山，黄山归来不看岳,190,"7,000",118.17,30.13,53.40
安徽省,黄山市,皖南古村落—西递·宏村,0.78,安徽省黄山市黟县宏村镇宏村里,炊烟袅袅升起，行走在皖南小山村,94,"7,296",117.98,29.90,51
安徽省,黄山市,古徽州文化旅游区,0.10,安徽省黄山市徽州区g205,将“徽文化”完美鲜活地呈现于世,69.80,330,118.34,29.84,25.40
安徽省,池州市,九华山风景区,1,安徽省池州市九华山镇二一九省道,神奇灵秀地，大愿九华山,160,"2,265",117.83,30.48,37.30
安徽省,安庆市,天柱山风景区,0.86,安徽省安庆市潜山县境内,飞瀑流泉，溪涧遍布，山有多高，水有多长,60,"2,874",116.47,30.74,103.80
安徽省,六安市,天堂寨旅游景区,1,安徽省金寨县天堂寨风景区,感受大自然的神气伟丽，品味乡野的淳朴善良,87,"1,478",115.79,31.14,174.40
安徽省,六安市,万佛湖景区,0.92,安徽省六安市舒城县万佛湖风景区,60多个大小不一的岛屿，有安徽千岛湖之誉,80,816,116.78,31.31,91.70
安徽省,宣城市,绩溪龙川景区,0.67,安徽省宣城市绩溪县太极湖村,阴阳太极何处寻,41.50,12,118.68,30.08,134.40
安徽省,阜阳市,八里河景区,1,安徽省阜阳市颍上县,飞流直下三千尺，疑是银河落九天,85,316,116.31,32.57,84.60
安徽省,合肥市,三河古镇景区,0.92,安徽省合肥市肥西县三河镇三杭路,典型的水乡古镇,30,8,117.25,31.52,49.30
安徽省,芜湖市,方特旅游区,0.61,福建省厦门市同安区石浔南路1111号,展现一幅华夏五千年文明精粹的灿烂画卷,220,118,118.38,31.38,7.40
安徽省,马鞍山市,长江采石矶文化生态旅游区,1,安徽省马鞍山市雨山区采石镇唐贤街1号,千古画卷，诗仙长眠之地,53.50,676,118.47,31.66,12.30
福建省,厦门市,鼓浪屿风景名胜区,0.98,福建省厦门市思明区鼓浪屿,琴之岛，乐之屿,44.70,"5,468",118.07,24.45,9.20
福建省,南平市,武夷山风景名胜区,1,福建省南平市武夷山国家旅游度假区,满园秋色尽在武夷风光,138,"3,577",117.96,27.67,27.40
福建省,龙岩市,土楼永定（土楼（永定·南靖）旅游景区）,0.70,福建省龙岩市永定区,丝绸之路南线，感受绚丽的大漠风光,85,86,117.01,24.67,102.90
福建省,龙岩市,古田旅游区,0.78,福建省龙岩市上杭县古田镇,峰峦叠嶂，原始森林遮天蔽日、郁郁葱葱,44,50,116.83,25.23,38.10
福建省,三明市,泰宁风景旅游区,0.23,福建省三明市泰宁县大金湖境内,冬无严寒，夏日凉润，秋高气爽，春暖花香,14.40,30,117.06,26.85,159
福建省,泉州市,清源山景区,0.99,安徽省池州市青阳县酉华镇金峰村,风光旖旎，远离城市喧嚣，放飞心灵,64.90,72,118.62,24.95,6.10
福建省,宁德市,白水洋·鸳鸯溪旅游景区,0.90,福建省宁德市西北部屏南县境内,享水上游乐之欢畅，品天下绝景之清凉,74,"1,142",119.12,27.06,155.80
福建省,宁德市,福鼎太姥山旅游区,1,福建省宁德福鼎市太姥山,太姥山，中国海边最美的山,29.90,"2,972",120.26,27.11,105.90
福建省,福州市,三坊七巷景区,1,福建省福州市鼓楼区三坊七巷,感受浓厚的闽越古城民居特色,45,64,119.30,26.09,6.10
福建省,莆田市,湄洲岛妈祖文化旅游区,0.88,福建省蒲田市秀屿区湄洲岛,港湾众多，岸线曲折，沙滩连绵，风景秀丽,0.90,22,119.14,25.07,31.90
江西省,九江市,庐山风景名胜区,1,江西省九江市庐山区,匡庐奇秀甲天下,160,"2,552",116.00,29.56,11.60
江西省,九江市,庐山西海景区,0.72,江西省九江市永修县柘林湖,抖音网红胜地,50,"2,130",116.05,29.45,102.50
江西省,吉安市,井冈山风景旅游区,1,江西省吉安井冈山市茨坪镇,红根已深植，今日正繁荣,165,594,114.14,26.64,129.60
江西省,上饶市,三清山旅游景区,0.86,江西省上饶市玉山县,人间四月芳菲尽 三清杜鹃始盛开,40,"2,408",117.99,28.45,65.10
江西省,上饶市,婺源江湾景区,0.90,江西省上饶市婺源县江湾镇,千年古镇江湾，钟灵毓秀，文风炽盛,143,54,118.06,29.37,160.90
江西省,上饶市,龟峰景区,0.72,江西省上饶市弋阳县方志敏大道,象形独秀，奇峦如画，钟灵毓秀，壁立万壑,49.50,406,117.43,28.32,68.20
江西省,鹰潭市,龙虎山旅游景区,0.70,江西省鹰潭市西南20公里处贵溪市境内,神秘的古越族文明，体验绝美的自然风光,60,"5,035",116.99,28.13,15.60
江西省,景德镇市,景德镇古窑民俗博览区,0.02,江西省景德镇市昌江区瓷都大道古窑路1号,探索中国千年陶瓷文化的脉络,85,"4,369",117.19,29.29,7
江西省,赣州市,共和国摇篮旅游区,0.04,江西省赣州市瑞金市旅游集散中心,一处一诗，一步一景,10,18,114.94,25.84,129.10
江西省,赣州市,三百山景区,0.89,青岛市平度市三河山镇靠近309国道,景色很美，天然氧吧,15,10,115.43,25.00,193.20
江西省,宜春市,明月山旅游区,1,江西省宜春市袁州区温汤镇,嫦娥的故乡，传说是当年嫦娥奔月的地方,80,"5,293",114.30,27.61,36.50
江西省,抚州市,大觉山景区,0.74,江西省抚州市资溪县建设路60号,山峦叠嶂，连绵起伏，沟谷纵横，风光旖旎,25,166,117.15,27.70,103.60
江西省,南昌市,滕王阁旅游区,1,江西省南昌市东湖区仿古街58号,落霞与孤鹜齐飞，秋水共长天一色,45,"3,386",115.89,28.68,5.10
江西省,萍乡市,武功山景区,1,江西省萍乡市芦溪县,高山草甸，初见惊艳，再见依然！,60,"16,678",114.14,27.50,117.80
山东省,烟台市,蓬莱阁旅游区,1,山东省烟台蓬莱市迎宾路7号,道教传说中著名的神仙住所和人间仙境,107.50,"4,530",120.78,37.82,83.20
山东省,烟台市,龙口南山景区,0.72,江苏省镇江市润州区竹林路98号,重峦叠翠、茂林修竹、山深水秀、泉涌溪流,34.90,72,120.49,37.57,98.90
山东省,济宁市,曲阜明故城（三孔）旅游区,0.86,山东省曲阜市明故城,孔府、孔庙、孔林，儒家圣地,50,"1,422",117.00,35.60,57.90
山东省,济宁市,微山湖旅游区,0.72,山东省济宁市微山县,四周风光无限，岛上青树郁郁葱葱,45,290,117.28,34.69,146.70
山东省,泰安市,泰山景区,1,山东省泰安市泰山区红门路54号,会当凌绝顶，一览纵山小,180,"1,040",117.14,36.20,4.10
山东省,青岛市,崂山景区,0.82,山东省青岛市崂山区内,古语云：“泰山虽云高，不如东海崂”,29.90,"1,778",120.63,36.19,31
山东省,威海市,刘公岛景区,1,山东省威海市海滨北路101-2号,北洋水师的诞生地，甲午战争的古战场,60,"4,372",122.20,37.51,9
山东省,威海市,华夏城旅游景区,0.70,山东省威海市环翠区威海经济技术开发区华夏路1号,自然与科技一体的新型生态旅游度假圣地,79,922,122.12,37.43,2
山东省,枣庄市,台儿庄古城景区,0.28,山东省枣庄市台儿庄区华兴路东段,被誉为“中华民族扬威不屈之地”,45,"21,556",117.75,34.56,69.80
山东省,济南市,天下第一泉景区,0.86,山东省济南市明湖路271号,玉带串名泉，一水连百景,20,146,117.02,36.67,2.60
山东省,临沂市,沂蒙山景区,0.84,山东省潍坊市潍坊市临朐县沂山镇镇址南300米,逃离雾霾，感受“天然氧吧”,78.50,122,117.98,35.57,86.20
山东省,临沂市,萤火虫水洞·地下大峡谷旅游区,1,山东省临沂市沂水县姚店子镇永富庄,中国特大型著名溶洞之一,86,"1,808",118.55,35.73,91.10
山东省,潍坊市,青州古城旅游区,0.40,山东省潍坊市青州古城,历史悠久的明清府衙驻地,2.25,168,118.49,36.69,13
山东省,东营市,黄河口生态旅游区,0.70,山东省东营市垦利县黄河口镇东北,生态旅游、科普教育于一体,55.60,458,119.08,37.81,68.40
河南省,郑州市,嵩山少林景区,0.98,河南省郑州登封市中岳大街146号,群山耸立，看功夫少林，品儒家文化,50,236,112.96,34.52,87.50
河南省,洛阳市,龙门石窟景区,1,河南省洛阳市洛龙区龙门中街13号,世界文化遗产 中国石刻艺术宝库,100,"2,873",112.48,34.56,16.50
河南省,洛阳市,白云山景区,0.84,湖南省邵阳武冈市云山国家森林公园,一座历史悠久的名山，为全国第六十九福地,0,0,111.40,33.92,171
河南省,洛阳市,老君山·鸡冠洞旅游区景区,0.72,河南省洛阳市栾川县栾川县城西三公里处,景色瑰丽，深不可测,75,398,111.58,33.79,151.10
河南省,洛阳市,龙潭大峡谷景区,0.72,辽宁省葫芦岛市建昌县老大杖子乡,集山、水、洞、石、瀑、峡景观为一体,140,140,112.00,34.97,77.70
河南省,焦作市,云台山—神农山—博爱青天河风景名胜区,1,河南省焦作市修武县修武正北30公里方庄（靠近233省道）,山水圣地，地质奇观，门票3天有效,180,"4,233",113.02,35.35,34.60
河南省,开封市,清明上河园,1,河南省开封市龙亭区龙亭西路5号,穿越宋朝，亲身体验清明上河图,45,"2,540",114.35,34.82,5.30
河南省,安阳市,殷墟景区,0.94,河南省安阳市西北郊小屯村,商朝晚期都城遗址，甲骨文发掘地,5,440,114.32,36.15,3.30
河南省,安阳市,红旗渠、太行大峡谷旅游景区,1,河南省安阳市林州市任村镇太行路225号,渠水奔腾，飞瀑喷雪，好似银河倾泻,75,"1,030",113.71,36.16,68.20
河南省,平顶山市,尧山—中原大佛景区,1,河南省平顶山市鲁山县尧山镇西竹园村,游尧山，拜大佛，浴温泉,3,618,112.47,33.77,117.20
河南省,南阳市,西峡伏牛山老界岭·恐龙遗址园旅游区,0.82,河南省南阳市西峡县太平镇东平村,山川秀美、林海苍莽，四季景色异彩纷呈,50,386,111.69,33.24,93.60
河南省,驻马店市,嵖岈山旅游景区,0.98,河南驻马店遂平县嵖岈山村,漫道黄山天下奇，嵖岈峭丽世间稀,0,0,113.74,33.14,44.20
河南省,商丘市,芒砀山旅游景区,0.88,河南省永城市芒山镇芒砀山景区,一座著名的汉文化旅游胜地,45,414,116.52,34.18,96.90
河南省,新乡市,八里沟景区,0.84,河南省新乡辉县市上八里镇松树坪村,荟萃太行山水精华,54.30,"1,170",113.55,35.59,44.30
河南省,信阳市,鸡公山景区,1,河南省信阳市浉河区鸡公山国家级风景名胜区,中国四大避暑圣地之一,54.90,424,114.08,32.14,36.60
湖北省,武汉市,黄鹤楼公园,1,湖北省武汉市武昌区蛇山,孤帆远影碧空尽，唯见长江天际流,65,"8,032",114.31,30.55,15.50
湖北省,武汉市,东湖景区,0,上海市崇明县陈家镇瀛东村,泛舟东湖，躬耕陇亩，尽享农家之乐,16,54,114.42,30.56,8.20
湖北省,武汉市,黄陂木兰文化生态旅游区,0.51,湖北武汉黄陂区境内,避暑圣地,132,36,114.40,31.10,70.70
湖北省,宜昌市,三峡大坝-屈原故里旅游区,0.74,湖北省宜昌市秭归县城西部,是新三峡十景之一,67,208,110.84,30.94,62.30
湖北省,宜昌市,三峡人家风景区,0.78,湖北省宜昌市夷陵区西陵峡内,三峡风光，巴风楚韵,80,"4,078",111.16,30.80,34.90
湖北省,宜昌市,三峡大瀑布景区,0.70,湖北省宜昌市夷陵区黄花乡黄花场村,天然瀑布群和峡谷丛林风光,30,"2,060",111.33,30.93,40.50
湖北省,宜昌市,长阳清江画廊风景区,0.72,湖北省宜昌市长阳县龙舟坪镇晒鼓坪村,无法抗拒的山清水秀，谁来谁说好,70,"1,880",111.25,30.53,55.90
湖北省,十堰市,武当山风景区,1,湖北省十堰市丹江口市武当山景区,一座历史悠久的仙山，武当拳的发源地,66,"1,436",111.07,32.47,40.20
湖北省,恩施土家族苗族自治州,神龙溪纤夫文化旅游区,0.88,湖北省恩施土家族苗族自治州巴东024县道,国家保护地，自然风光好，有点神秘的地方,200,876,110.32,31.26,86.30
湖北省,恩施土家族苗族自治州,恩施大峡谷景区,0.02,湖北省恩施市西北部沐抚办事处境内,有天坑，有地缝，有天生桥，有溶洞,0.20,"3,173",109.17,30.43,49.90
湖北省,恩施土家族苗族自治州,腾龙洞景区,0.96,腾龙洞游客中心,旅游、疗养、探险、地质考察的理想之地,20,"2,396",108.99,30.34,79.70
湖北省,神农架林区,神农架生态旅游区,0.84,湖北省神农架林区境内,带你纵览神农美景，旅游的理想胜地,9.90,242,110.70,31.75,108.10
湖北省,咸宁市,三国赤壁古战场景区,0.77,湖北省咸宁赤壁市赤壁镇武侯巷6号,穿越三国，感受三国赤壁的战火纷飞,115,302,113.64,29.89,85.30
湖北省,襄阳市,古隆中景区,1,湖北省襄阳襄城区隆中路461号,诸葛亮“躬耕陇亩”，刘备“三顾茅庐”之地,80,"1,412",111.68,32.38,19.60
湖南省,衡阳市,南岳衡山旅游区,0.74,湖南省衡阳市南岳区衡山风景区内,历来是神仙居住的洞府,25,34,112.72,27.28,50.40
湖南省,张家界市,张家界武陵源—天门山旅游区,0.70,北京市密云县石城镇柳棵峪,观日出、看云海，赏地质奇观,25,4,110.50,29.02,36.40
湖南省,长沙市,岳麓山—橘子洲景区,0.92,湖南省长沙市岳麓区登高路58号,赏枫胜地，不在别处！就在这儿,0.40,194,112.94,28.19,20.70
湖南省,长沙市,花明楼景区,0.72,湖南省长沙市宁乡县花明楼镇炭子冲村,再现了刘少奇在这里学习和活动的部分场景,0.30,218,112.65,28.04,49.90
湖南省,岳阳市,岳阳楼—君山岛景区,1,湖南省岳阳市岳阳楼区洞庭北路60号,未到江南先一笑，岳阳楼上对君山,66,"2,336",113.01,29.36,24.70
湖南省,湘潭市,韶山旅游区,0.28,湖南省湘潭韶山市,怀缅伟人的丰功伟绩，珍惜和平的来之不易,6,320,112.50,27.91,49.30
湖南省,郴州市,东江湖旅游区,0.86,湖南省郴州资兴市x203,急流险滩，龙景峡谷,80,"5,569",113.32,25.87,33.70
湖南省,邵阳市,崀山景区,1,湖南省邵阳市新宁县崀山,避暑度假，探险猎奇的理想去处,68,288,110.80,26.36,128.60
湖南省,株洲市,炎帝陵景区,0.45,山西省晋城市高平市东北17公里处庄里村,中华民族的始祖炎帝长眠于此,50,12,113.68,26.43,203.40
湖南省,常德市,桃花源旅游区,0.72,江西省九江市星子县,两岸青山合抱、雾绕云遮,0,0,111.45,28.80,65.40
湖南省,湘西土家族苗族自治州,矮寨·十八洞·德夯大峡谷景区,0.94,湖南省湘西州吉首市德夯大峡谷,峡谷悬索桥上走，好似云中漫步行,180,16,109.59,28.35,33.60
广东省,广州市,长隆旅游度假区,0.70,广东省广州市番禺区番禺大道,一站式旅游度假胜地，广东必游景点,93,"11,236",113.33,23.01,25.30
广东省,广州市,白云山风景区,0.84,湖南省邵阳武冈市云山国家森林公园,一座历史悠久的名山，为全国第六十九福地,0,0,113.30,23.17,9.30
广东省,深圳市,深圳华侨城旅游度假区,0.03,江苏省姜堰市溱湖大道2号,中国湿地生态温泉名城,87,6,113.99,22.54,17
广东省,深圳市,观澜湖休闲旅游区,0.35,广东省深圳市龙华新区高尔夫大道观澜湖新城对面（观澜乡村俱乐部旁）,集大自然美景和休闲娱乐为一体的生态公园,85,34,114.00,22.70,32.10
广东省,佛山市,西樵山景区,0.92,广东省佛山市南海区西樵镇环山大道山南路,几千年的沧桑沉淀凝练了西樵山的独特文化,50,200,112.98,22.93,33.50
广东省,佛山市,长鹿旅游休博园,0.92,广东省佛山市顺德区伦教三洲建设东路8号,公园有很多树遮阳的地方,88,"2,413",113.30,22.88,44.50
广东省,韶关市,丹霞山景区,0.16,广西壮族自治区河池市南丹县吾隘镇丹炉山,现存完整的炼丹遗址等你来参观~,158,18,113.73,25.03,59.50
广东省,梅州市,雁南飞茶田景区,0.86,广东省梅州市梅县区雁洋镇,青山环绕中呈现一幅世外桃源的醉人画卷,70,132,116.37,24.39,42.30
广东省,惠州市,罗浮山景区,0.70,安徽省安庆市枞阳县浮山镇,一座佛教文化名山,68,28,114.08,23.27,53.60
广东省,惠州市,惠州西湖旅游景区,1,浙江省杭州市西湖区龙井路1号,在这里邂逅你的白娘子吧,7.50,"4,446",114.41,23.09,9.50
广东省,中山市,孙中山故里旅游区,0.86,中山市翠亨大道45号,浓缩了孙中山先生从事革命活动的纪念地，感受孙中山先生波澜壮阔的革命一生，体验到影视旅游的独到魅力,0,"5,698",113.53,22.45,21.20
广东省,江门市,开平碉楼文化旅游区,0.98,广东省江门开平市五五五县道,中国华侨文化的纪念丰碑,50,252,112.59,22.38,77.50
广东省,阳江市,海陵岛大角湾海上丝路旅游区,0.89,广东省阳江市海陵岛闸坡镇海滨路38号,南海鱼仓,3,26,111.85,21.58,44.70
广东省,肇庆市,星湖旅游景区,1,肇庆市端州区星湖大道,群山环绕，湖水碧绿,56,386,112.48,23.06,5.70
广东省,清远市,连州地下河旅游景区,0.76,广东省清远连州市东陂镇大洞村,洞中石笋、石柱、石花、石幔，诡谲奇特,95.80,"2,148",112.34,25.01,223.10
广西壮族自治区,桂林市,漓江景区,1,广西壮族自治区桂林市阳朔县,分明看见青山顶，船在青山顶上行,19.90,"2,255",110.44,25.15,24.60
广西壮族自治区,桂林市,乐满地度假世界,0.54,广西壮族自治区兴安县灵湖路,观光、休闲、旅游、度假于一体,55,230,110.31,25.31,7.12
广西壮族自治区,桂林市,独秀峰－王城景区,0.72,广西壮族自治区桂林市秀峰区王城路1号,明代王府清朝贡院所在地，阅尽王城知桂林,79,960,110.31,25.29,3.70
广西壮族自治区,桂林市,两江四湖·象山景区,0.70,广西壮族自治区桂林市民主路52号,桂林城徽，绝美赏月地领略三月争辉奇景,51,"2,603",110.30,25.27,3.90
广西壮族自治区,崇左市,德天跨国瀑布景区,1,广西壮族自治区崇左市大新县硕龙镇陇宏村德天跨国瀑布景区,天然跨国瀑布，中国六大著名瀑布之一,78,"4,336",106.74,22.86,104.40
广西壮族自治区,百色市,百色起义纪念园景区,1,百色市右江区城东路112号,两江红旗，百色风雷,0,890,106.65,23.91,3.70
广西壮族自治区,南宁市,青秀山旅游区,0.82,广西壮族自治区南宁市青秀区青山路19号,被誉为“南宁市的巨肺”,18,"2,468",108.36,22.87,14
广西壮族自治区,北海市,涠洲岛南湾鳄鱼山景区,0.92,广西省北海市南北部湾海域,秀美的火山岛，感受渔家风情,107,"3,386",109.11,21.02,5.60
广西壮族自治区,贺州市,黄姚古镇景区,1,广西壮族自治区贺州市昭平县,诗境家园，电影《面纱》拍摄地,82,"4,662",111.21,24.25,63
海南省,三亚市,南山文化旅游区,0.76,海南省三亚市崖城镇南山村,108米的海上三面观音，三亚不容错过之旅,118,"6,647",109.22,18.31,24.70
海南省,三亚市,南山大小洞天旅游区,0.72,江苏省镇江市润州区竹林路98号,重峦叠翠、茂林修竹、山深水秀、泉涌溪流,34.90,72,109.16,18.31,32
海南省,三亚市,蜈支洲岛旅游区,0.86,海南省三亚市林旺镇海棠湾蜈支洲岛,私人订制主取景地,133,"4,979",109.77,18.32,42.10
海南省,三亚市,分界洲岛旅游区,0.50,海南省三亚东线高速公路牛岭15号出口处,海底生态景观保存完整潜水胜地海豚表演,198,83,109.52,18.26,95.10
海南省,三亚市,呀诺达雨林文化旅游区,0.12,海南省保亭黎族苗族自治县三道农场呀诺达雨林文化旅游区,地处北纬18度的热带雨林,135,"1,148",109.49,18.32,45.40
海南省,三亚市,槟榔谷黎苗文化旅游区,0.72,海南省三亚市保亭黎苗族自治县甘什岭自然保护区,一个逃逸世俗的心灵驿站,35,910,109.49,18.32,38.20
重庆市,重庆市,重庆大足石刻景区,0.78,重庆市大足县龙岗镇北山路7号,欣赏真正的“千手”观音,140,"1,484",105.80,29.76,99.40
重庆市,重庆市,重庆小三峡-小小三峡,0.74,重庆市巫山县广东中路170号,长江三峡旅游水道线上一颗璀璨明珠,113,886,109.89,31.24,7.90
重庆市,重庆市,武隆喀斯特旅游区（天生三桥、仙女山、芙蓉洞),0.76,重庆市武隆县江口镇芙蓉路88号,《中国国家地理》评出的中国第二美溶洞,146,276,107.82,29.44,179.10
重庆市,重庆市,金佛山-神龙峡景区,0.72,重庆市南川区金佛山西坡旅游区,山势雄奇秀丽，景色深秀迷人,66,916,107.06,29.00,113.50
重庆市,重庆市,酉阳桃花源景区,0.72,江西省九江市星子县,两岸青山合抱、雾绕云遮,0,0,108.76,28.86,84.10
重庆市,重庆市,黑山谷景区,0.72,重庆市万盛区黑山镇境内,重庆独特的生物基因库，西南神农架,400,"1,792",106.98,28.87,99.30
重庆市,重庆市,江津四面山景区,0.72,重庆市江津区四面山风景区,生机盎然，峡谷深山，森林莽莽,40,"1,964",106.40,28.62,135.90
重庆市,重庆市,云阳龙缸景区,0.70,重庆市云阳县清水镇,浓郁土家风情，长江三峡的香格里拉,5,976,109.01,30.67,127.30
重庆市,重庆市,阿依河景区,0.70,重庆市彭水县汉葭镇柏香村,江面绿水清幽，两岸翠竹环绕，亲近自然,55,176,108.13,29.16,231.30
重庆市,重庆市,濯水景区,0.66,重庆市黔江区濯水镇距黔江主城26公里,乘船沿河而入，听空山鸟鸣，赏两岸胜景,86.60,196,108.78,29.30,20.90
重庆市,重庆市,白帝城·瞿塘峡景区,0.78,重庆市近郊奉节县瞿塘峡口长江北岸,三国史上悲壮的一幕，刘备托孤之地,88,780,109.59,31.04,53.20
四川省,成都市,青城山—都江堰旅游景区,1,四川省成都市都江堰市,感受都江堰水利工程的古人智慧,40,"10,178",103.60,30.91,65.30
四川省,成都市,安仁古镇景区,0.81,四川省成都市大邑县安仁镇,建筑风格中西结合，号称川西建筑文化精品,18,398,103.63,30.51,56.70
四川省,乐山市,峨眉山景区,1,四川省乐山峨眉山市峨眉山风景名胜区,云上金顶，天下峨眉,155,"8,173",103.36,29.57,36.30
四川省,乐山市,乐山大佛景区,0.82,四川省乐山市市中区凌云路2435号簏子街,摩崖石刻造像,80,"6,980",103.78,29.54,19.30
四川省,阿坝藏族羌族自治州,九寨沟旅游景区,1,四川省阿坝藏族羌族自治州九寨沟县漳扎镇九寨沟,传说中的童话天堂，你还在犹豫么,680,"1,354",102.23,31.91,86.40
四川省,阿坝藏族羌族自治州,黄龙景区,0.74,四川省阿坝藏族羌族自治州松潘县,保护完好的高原湿地,250,892,103.84,32.75,34.50
四川省,阿坝藏族羌族自治州,汶川特别旅游区,0.70,四川阿坝州汶川县映秀镇,汶川地震震中纪念地，遗迹让人次次驻足,118,10,103.49,31.06,94.80
四川省,南充市,阆中古城旅游景区,1,四川省阆中市阆水中路33号,张飞镇守的风水古城,10,"1,694",105.97,31.58,99.40
四川省,南充市,仪陇朱德故里景区,0.96,四川省南充市仪陇县马鞍镇大湾路,全国百个红色经典景区之一,30,438,106.61,31.47,141.70
四川省,绵阳市,北川羌城旅游区,0.90,四川省绵阳市北川羌族自治县任家坪村,具有很浓郁的羌族风格,118,50,104.47,31.61,61.40
四川省,广安市,邓小平故里旅游区,0.84,四川省广安市广安区协兴镇,全国爱国主义教育基地,0.60,80,106.64,30.53,311.30
四川省,广元市,剑门蜀道剑门关旅游区,1,四川省广元市剑阁县河东街64号,自然风光雄、奇、幽、秀,95,"4,434",105.58,32.23,54
四川省,甘孜藏族自治州,海螺沟景区,0.90,四川省甘孜藏族自治州泸定县木西镇共和村,云海仙境，让我迷失在你的神秘里,160,"2,402",102.07,29.59,160.30
四川省,甘孜藏族自治州,稻城亚丁旅游景区,1,四川省甘孜藏族自治州稻城县,从你的全世界路过,341,"3,638",100.30,29.04,633.80
四川省,雅安市,碧峰峡旅游景区,0.90,四川省雅安市雨城区下里乡碧峰镇,听浪漫传说，呼吸大自然新鲜空气,93,"3,302",103.00,30.08,22.50
四川省,巴中市,光雾山旅游景区,1,四川省巴中市南江县北部光雾山镇,中国红叶名山，刘关张桃园结义处,75,74,106.81,32.69,122
贵州省,安顺市,黄果树大瀑布景区,0.44,贵州省安顺市镇宁县黄果树瀑布景区内,领略到黄果树瀑布的雄奇和壮观,50,28,105.68,25.98,42.40
贵州省,安顺市,龙宫景区,0.72,贵州省安顺市镇宁县龙宫镇,览龙宫知天下水洞，荡轻舟临人间仙境,85,"2,376",105.89,26.11,32.30
贵州省,毕节市,百里杜鹃景区,1,贵州省毕节市黔西县普底乡,每年杜鹃花开时，漫山遍野一片红,50,4,105.95,27.19,50.60
贵州省,毕节市,织金洞景区,1,贵州省毕节市织金县官寨乡织金洞景区,黄山归来不看岳， 织金洞外无洞天,20,"1,452",105.91,26.77,110.50
贵州省,黔南布依族苗族自治州,荔波樟江景区,1,贵州省黔南布依族苗族自治州荔波县城南部30余公里,感受马帮文化，茶马古道文化,0,0,107.75,25.26,12.60
贵州省,贵阳市,青岩古镇景区,0.82,贵阳市花溪区交通路240号,由土城而渐成街巷纵横错综之石城,30,"1,332",106.69,26.34,34.60
贵州省,铜仁市,梵净山旅游区,1,中国贵州铜仁地区江口县梵净山,独一无二，惊世骇俗,110,"3,772",109.20,27.74,67.40
贵州省,黔东南苗族侗族自治州,镇远古城旅游景区,0.92,贵州省黔东南苗族侗族自治州镇远县顺城路镇远,历史文化名城,50,36,108.43,27.06,48.50
贵州省,遵义市,赤水丹霞旅游区,0.84,贵州省赤水市两河口乡,森林原始，生态系统完整，地势险峻,138,182,105.95,28.41,226.20
云南省,昆明市,石林风景区,0.78,云南省昆明市石林彝族自治县境内,怪石林立，突兀峥嵘，姿态各异,0.90,974,103.33,24.82,84.50
云南省,昆明市,昆明世博园景区,0.97,云南省昆明市盘龙区昆明世博园国际馆,“人与自然，和谐发展”的完美体现,188,30,102.77,25.08,11.80
云南省,丽江市,玉龙雪山景区,0.96,云南省丽江市玉龙纳西族自治县,壮美大雪山，十三座雪峰连绵不绝,184,"1,602",100.21,27.14,42.40
云南省,丽江市,丽江古城景区,1,云南省丽江市玉龙纳西族自治县东大街1号,一座没有城墙的古城，依山傍水，风景秀丽,27.50,610,100.23,26.88,8.40
云南省,大理白族自治州,崇圣寺三塔文化旅游区,0.86,云南省大理市大理古城西北两公里的苍山应乐峰下,大理的标志和象征，来大理不可错过的地方哦,94,"1,276",100.15,25.71,19.70
云南省,西双版纳傣族自治州,中国科学院西双版纳热带植物园,0.84,云南省西双版纳州勐腊县勐仑镇(近野象谷),四千余种来自世界各地的热带植物栖居于此,79,814,101.26,21.93,62.20
云南省,迪庆藏族自治州,香格里拉普达措景区,0.88,云南省迪庆藏族自治州香格里拉县建塘镇双桥,张杰谢娜婚礼之地，原始森林中的伊甸园,100,910,99.95,27.86,24.10
云南省,保山市,腾冲火山热海旅游区,0.78,云南省保山市腾冲县离县城10公里,囊括世界9大温泉种类，是泡温泉的好去处,3.90,468,98.45,24.95,153.20
云南省,文山壮族苗族自治州,普者黑旅游景区,1,云南省文山壮族苗族自治州丘北县城西13公里,中国独一无二的喀斯特山水田园风光,165,476,104.14,24.12,12.70
西藏自治区,拉萨市,布达拉宫景区,1,西藏自治区拉萨市城关区北京中路35号,朝圣者的天堂,177,"2,600",91.13,29.66,7.70
西藏自治区,拉萨市,大昭寺,0.92,西藏拉萨市城关区中心八角街,西藏辉煌的一座吐蕃时期的建筑,108,478,91.14,29.66,8.80
西藏自治区,林芝市,巴松措景区,0.76,西藏自治区林芝地区工布江达县,藏传佛教红教神湖，湖水碧绿，周围青山悠悠,140,144,93.97,30.01,135.30
西藏自治区,林芝市,雅鲁藏布大峡谷旅游景区,0.42,西藏省林芝地区米林县雅鲁藏布大峡谷风景区,观峡谷，赏美峰,290,94,94.94,29.62,81.10
西藏自治区,日喀则市,扎什伦布寺景区,0.90,西藏日喀则市几吉郎卡路1号,可与布达拉宫相媲美，六大黄教寺院之一,399,6,88.88,29.27,7.70
陕西省,西安市,秦始皇兵马俑博物馆,0.86,陕西省西安市临潼区秦陵北路西端秦始皇陵丽山园景区正门入口右边,秦始皇帝陵博物院的组成部分,1.60,692,109.29,34.39,37.90
陕西省,西安市,华清池景区,0.64,陕西省西安市临潼区华清路38号华清池,中国首部大型实景历史舞剧,224,"5,123",109.22,34.37,29.30
陕西省,西安市,大雁塔·大唐芙蓉园景区,0.70,在山西霍县城南2公里塬上,仰观古塔，远览山川风光，乐趣无穷,0,0,108.98,34.22,8
陕西省,西安市,城墙·碑林历史文化景区,0.80,陕西省西安市碑林区三学街15号（近书院门）,每一块碑石都经历了一段历史,60,"1,022",108.95,34.26,3.50
陕西省,西安市,大明宫旅游景区,0.88,陕西省西安市新城区自强东路585号.,展出了明代的建筑物和大明的建筑遗迹,60,"2,435",108.97,34.32,2.10
陕西省,延安市,黄帝陵景区,1,陕西省延安市黄陵县城北的桥山颠,中华始祖黄帝轩辕氏的陵墓,69,"2,771",109.28,35.59,140.40
陕西省,延安市,延安革命纪念地景区,0.74,陕西省延安市宝塔区王家坪,被中宣部命名为“百名爱国主义教育基地”,100,37,109.50,36.66,6.90
陕西省,延安市,黄河壶口瀑布旅游区,1,陕西省延安市宜川县壶口乡,有”千里黄河一壶收”的气概,83.40,"3,822",111.53,36.09,130.20
陕西省,渭南市,华山景区,1,陕西省渭南市华阴市境内,只有天在上，更无山与齐,160,"8,584",110.07,34.50,59.20
陕西省,宝鸡市,法门寺佛文化景区,1,陕西省宝鸡市扶风县城北10公里法门镇,释迦牟尼佛指舍利供奉圣地,96,"1,376",107.91,34.44,93.90
陕西省,宝鸡市,太白山旅游景区,0,东北吉林省长春市南关区人民大街2866号,山峰林立，绵亘起伏，沟谷交错，河流纵横,0,0,107.92,34.14,88.80
陕西省,商洛市,金丝峡景区,0.80,陕西省商洛市商南县金丝峡镇,风光秀丽，风格独特，风景如画,95,434,110.57,33.36,97.90
甘肃省,嘉峪关市,嘉峪关文物景区,0.84,甘肃省嘉峪关市明万里长城最西端,嘉峪关——万里长城西端的主宰,108,"2,744",98.23,39.81,7.20
甘肃省,平凉市,崆峒山风景名胜区,1,甘肃省平凉市崆峒区城西12公里处,崆峒派驻地，小心七伤拳,137,602,106.49,35.54,13.70
甘肃省,天水市,麦积山景区,1,甘肃省天水市麦积区麦积镇麦积村,中国佛教四大石窟之一，完美的石窟艺术宝库,80,"2,273",106.01,34.37,30.40
甘肃省,酒泉市,鸣沙山月牙泉景区,0.78,新疆哈密巴里坤盆地东缘,哈密鸣沙山南距口门子约12千米，东侧有302省国道通过。鸣沙山位于哈密巴里坤盆地东缘，四周高山环绕，方圆约25平方千米，,0,0,94.69,40.09,398.30
甘肃省,张掖市,七彩丹霞景区,0.62,甘肃省张掖市临泽县七彩丹霞旅游景区主入口与张肃公路交汇处,体验地域民风，感受张掖千古情怀,0,0,100.08,38.96,46.40
甘肃省,临夏回族自治州,炳灵寺世界文化遗产旅游区,0.70,甘肃省临夏州永靖县,石窟开凿在黄河北岸大寺沟的峭壁之上,129,88,103.07,35.82,71.10
甘肃省,陇南市,官鹅沟景区,0.98,宕昌县城关镇,山清水秀，鸟语花香，峰回路转，曲经通幽,0,0,104.40,34.02,118.30
青海省,海北藏族自治州,青海湖景区,0.50,青海省海南藏族自治州共和县,内陆湖泊和咸水湖,87,"1,212",100.92,36.97,160
青海省,海北藏族自治州,阿咪东索景区,0.86,青海省海北藏族自治州祁连县城东南9公里302省道旁,阿咪东索，一山尽览四季美景,60,"1,654",100.33,38.11,269.90
青海省,西宁市,塔尔寺景区,0.86,河北省唐山市迁安市大五里乡上庄子村,山林资源丰富，生态系统良好。,33.80,38,101.57,36.49,34.90
青海省,海东市,互助土族故土园景区,0.70,青海省海东地区互助县威远镇北街1号,雄奇独特的生态环境、古老神秘的文化遗迹,100,14,101.94,36.84,88.40
宁夏回族自治区,石嘴山市,沙湖旅游景区,1,宁夏省石嘴山市平罗县境内西大滩（沙湖生态旅游区）,看珍鸟奇禽，群鸟嬉戏的绝佳之地,90,"2,415",106.37,38.81,15.50
宁夏回族自治区,中卫市,沙坡头旅游景区,1,宁夏回族自治区中卫市沙坡头区迎水桥镇,欧亚大通道，古丝绸之路的必经之地,75,"4,058",105.01,37.48,22.80
宁夏回族自治区,银川市,镇北堡西部影视城,0.88,宁夏省银川市西夏区镇北堡西部影城,邂逅“东方好莱坞”,76,"8,132",106.08,38.62,23.70
宁夏回族自治区,银川市,灵武水洞沟旅游区,0.78,宁夏银川灵武市宁夏银川灵武市临河镇水洞沟旅游景区内,我国最早的地道战遗址和原型,0,0,106.52,38.30,48.70
新疆维吾尔自治区,昌吉回族自治州,新疆天山天池风景名胜区,1,新疆维吾尔自治区昌吉回族自治州阜康市,湖畔森林茂密，绿草如茵,155,"3,113",87.64,43.80,94
新疆维吾尔自治区,昌吉回族自治州,江布拉克景区,0.75,新疆昌吉奇台县,奇台魔鬼城所在地，新疆独特雅丹地貌,21,278,89.69,43.56,257
新疆维吾尔自治区,吐鲁番市,葡萄沟风景区,1,新疆省吐鲁番市东北10公里的火焰山中,去新疆必游之地,79,"1,998",89.25,43.01,52
新疆维吾尔自治区,阿勒泰地区,喀纳斯景区,1,新疆阿勒泰布尔津县环城南西路3号,【注意】水怪出没！快来一探究竟吧,375,"2,877",87.14,48.51,259.70
新疆维吾尔自治区,阿勒泰地区,可可托海景区,0.72,新疆维吾尔自治区阿勒泰地区富蕴县可可托海镇以东5公里处,西北边陲上，人少景美新去处,110,"2,460",89.89,47.23,279.50
新疆维吾尔自治区,阿勒泰地区,白沙湖景区,0.70,新疆维吾尔自治区阿勒泰地区哈巴河县,犹如一个完美无缺的自然大盆景,39,22,86.49,48.04,297.20
新疆维吾尔自治区,伊犁哈萨克自治州,那拉提旅游风景区,1,新疆维吾尔自治区伊犁哈萨克自治州新源县,“塞外江南”给你群山俊秀，绿草如茵的美景,67,638,84.03,43.33,254
新疆维吾尔自治区,伊犁哈萨克自治州,喀拉峻景区,0.29,新疆维吾尔自治区伊犁特克斯县的南部天山之中,中国巅峰自然美?世界自然遗产喀拉峻国际生态旅游区位于伊犁特克斯县境内，距“八卦城”县城15公里，由阔克苏大峡谷景区、东喀,105,258,82.16,43.14,114.20
新疆维吾尔自治区,喀什地区,泽普金湖杨景区,0.26,新疆喀什地区泽普县奎依巴格乡亚斯墩林场(泽普县西南40公里处),看胡杨林生而千年不死，死而千年不倒,38,98,77.27,38.20,244.80
新疆维吾尔自治区,喀什地区,喀什噶尔老城景区,0.34,新疆维吾尔自治区喀什地区喀什市亚瓦格路,著名的艾提尕尔清真寺与它隔街相望,3,31,76.00,39.48,6.50
新疆维吾尔自治区,喀什地区,帕米尔旅游区,0.70,新疆喀什地区塔什库尔干县,帕米尔高原--亚洲屋脊,160,8,75.21,37.80,300.50
新疆维吾尔自治区,乌鲁木齐市,天山大峡谷景区,1,新疆哈密地区东天山北坡,心旷神怡、流连忘返,0,0,87.64,43.80,59.30
新疆维吾尔自治区,巴音郭楞蒙古自治州,博斯腾湖景区,0.78,新疆-巴音郭楞-库尔勒市博湖县境内,苇翠荷香，曲径邃深，被誉为“世外桃园”,3,78,86.79,41.75,83
新疆维吾尔自治区,巴音郭楞蒙古自治州,和静巴音布鲁克景区,0.76,新疆巴音郭楞州库尔勒市和静县西北,这里雪峰环抱，地势跌宕，水草美风光诱人,50,95,84.44,42.77,358.60
新疆维吾尔自治区,克拉玛依市,世界魔鬼城景区,1,新疆克拉玛依市东北部乌尔禾区境内,具有丰富的科学内涵和极高的观赏价值,27,"4,525",85.75,46.14,112.30
新疆维吾尔自治区,博尔塔拉蒙古自治州,赛里木湖景区,0.40,新疆博尔塔拉蒙古自治州博乐市东北48公里怪石沟景区内,神奇秀丽的自然风光,70,"2,222",81.19,44.50,97
新疆维吾尔自治区,博尔塔拉蒙古自治州,塔克拉玛干·三五九旅文化旅游区,0.84,新疆维吾尔自治区阿克苏地区阿克苏市,全世界第二大流动沙漠,136,60,82.07,44.91,119.30
